[
  {
    "id": 1,
    "name": "Sunrise Cafe",
    "type": "Cafe",
    "address": {
      "street": "Route de Meyrin 28c",
      "postalCode": "1211",
      "city": "Geneva",
      "state": "Geneva",
      "country": "Switzerland",
      "coordinates": [46.2160126, 6.125234086873063]
    },
    "openingHour": "08:00",
    "closingHour": "18:00"
  },
  {
    "id": 2,
    "name": "Mountain Gear",
    "type": "Sports Equipment",
    "address": {
      "street": "Route Des Montagnes 2.6",
      "postalCode": "1273",
      "city": "Arzier-Le Muids",
      "state": "Vaud",
      "country": "Switzerland",
      "coordinates": [46.504104, 6.152856]
    },
    "openingHour": "09:00",
    "closingHour": "17:00"
  },
  {
    "id": 3,
    "name": "Greifensee Flowers",
    "type": "Florist",
    "address": {
      "street": "Schützenweg 2",
      "postalCode": "8606",
      "city": "Greifensee",
      "state": "Zurich",
      "country": "Switzerland",
      "coordinates": [47.359337, 8.685699]
    },
    "openingHour": "10:00",
    "closingHour": "18:00"
  },
  {
    "id": 4,
    "name": "Alpine Books",
    "type": "Bookstore",
    "address": {
      "street": "Via Davos Pali 10.1",
      "postalCode": "7185",
      "city": "Platta",
      "state": "Graubunden",
      "country": "Switzerland",
      "coordinates": [46.645958, 8.844958]
    },
    "openingHour": "08:30",
    "closingHour": "16:30"
  },
  {
    "id": 5,
    "name": "Le Paquier Boutique",
    "type": "Clothing",
    "address": {
      "street": "Les Planches 6",
      "postalCode": "2056",
      "city": "Val-de-Ruz",
      "state": "Neuchatel",
      "country": "Switzerland",
      "coordinates": [47.086511, 6.964622]
    },
    "openingHour": "09:30",
    "closingHour": "17:30"
  },
  {
    "id": 6,
    "name": "Beinwil Bakery",
    "type": "Bakery",
    "address": {
      "street": "Ober Chratten 60",
      "postalCode": "4229",
      "city": "Beinwil (SO)",
      "state": "Solothurn",
      "country": "Switzerland",
      "coordinates": [47.34558, 7.605554]
    },
    "openingHour": "08:00",
    "closingHour": "18:00"
  },
  {
    "id": 7,
    "name": "Surrein Groceries",
    "type": "Supermarket",
    "address": {
      "street": "Via Valtenigia 4",
      "postalCode": "7173",
      "city": "Surrein",
      "state": "Graubunden",
      "country": "Switzerland",
      "coordinates": [46.677405, 8.972045]
    },
    "openingHour": "09:00",
    "closingHour": "18:00"
  },
  {
    "id": 8,
    "name": "Schmitten Delicatessen",
    "type": "Delicatessen",
    "address": {
      "street": "Raglaunawäg 33",
      "postalCode": "7493",
      "city": "Schmitten",
      "state": "Graubunden",
      "country": "Switzerland",
      "coordinates": [46.702797, 9.673329]
    },
    "openingHour": "09:30",
    "closingHour": "17:00"
  },
  {
    "id": 9,
    "name": "Vermol's Electronics",
    "type": "Electronics",
    "address": {
      "street": "Tobelweg 6.2",
      "postalCode": "8886",
      "city": "Mädris-Vermol",
      "state": "Saint Gallen",
      "country": "Switzerland",
      "coordinates": [47.036869, 9.391379]
    },
    "openingHour": "08:00",
    "closingHour": "16:00"
  },
  {
    "id": 10,
    "name": "Meiringen Art Gallery",
    "type": "Art Gallery",
    "address": {
      "street": "Wirzen 556",
      "postalCode": "3860",
      "city": "Unterbach",
      "state": "Bern",
      "country": "Switzerland",
      "coordinates": [46.727531, 8.094582]
    },
    "openingHour": "10:00",
    "closingHour": "17:00"
  },
  {
    "id": 11,
    "name": "Habkern Books",
    "type": "Bookstore",
    "address": {
      "street": "Ällgäuli 895",
      "postalCode": "3804",
      "city": "Habkern",
      "state": "Bern",
      "country": "Switzerland",
      "coordinates": [46.775147, 7.900625]
    },
    "openingHour": "08:00 AM",
    "closingHour": "04:00 PM"
  },
  {
    "id": 12,
    "name": "Engelberg Groceries",
    "type": "Grocery Store",
    "address": {
      "street": "Ristis 1",
      "postalCode": "6390",
      "city": "Engelberg",
      "state": "Obwalden",
      "country": "Switzerland",
      "coordinates": [46.83241, 8.407776]
    },
    "openingHour": "09:00 AM",
    "closingHour": "06:00 PM"
  },
  {
    "id": 13,
    "name": "Hinterrhein Café",
    "type": "Café",
    "address": {
      "street": "Rheinquellstrasse 9.1",
      "postalCode": "7438",
      "city": "Hinterrhein",
      "state": "Graubunden",
      "country": "Switzerland",
      "coordinates": [46.52023, 9.174977]
    },
    "openingHour": "08:30 AM",
    "closingHour": "05:30 PM"
  },
  {
    "id": 14,
    "name": "Saxon Bakery",
    "type": "Bakery",
    "address": {
      "street": "Chemin De La Mouillire 3",
      "postalCode": "1907",
      "city": "Saxon",
      "state": "Valais",
      "country": "Switzerland",
      "coordinates": [46.142496, 7.185842]
    },
    "openingHour": "08:00 AM",
    "closingHour": "02:00 PM"
  },
  {
    "id": 15,
    "name": "Bürglen Fashion",
    "type": "Clothing Store",
    "address": {
      "street": "Aussere Bittleten 1.1",
      "postalCode": "6463",
      "city": "Bürglen",
      "state": "Uri",
      "country": "Switzerland",
      "coordinates": [46.882125, 8.656187]
    },
    "openingHour": "09:00 AM",
    "closingHour": "05:00 PM"
  },
  {
    "id": 16,
    "name": "Sta. Maria Val Müstair Gifts",
    "type": "Gift Shop",
    "address": {
      "street": "Via Alp Sprella 3",
      "postalCode": "7536",
      "city": "Sta. Maria Val Müstair",
      "state": "Graubunden",
      "country": "Switzerland",
      "coordinates": [46.591919, 10.300121]
    },
    "openingHour": "10:00 AM",
    "closingHour": "06:00 PM"
  },
  {
    "id": 17,
    "name": "Frasco Hardware",
    "type": "Hardware Store",
    "address": {
      "street": "Vald 3",
      "postalCode": "6636",
      "city": "Frasco",
      "state": "Ticino",
      "country": "Switzerland",
      "coordinates": [46.371025, 8.79948]
    },
    "openingHour": "08:30 AM",
    "closingHour": "04:00 PM"
  },
  {
    "id": 18,
    "name": "Sudern Electronics",
    "type": "Electronics Store",
    "address": {
      "street": "Vorder Naters 144f",
      "postalCode": "3618",
      "city": "Sudern",
      "state": "Bern",
      "country": "Switzerland",
      "coordinates": [46.83542, 7.767051]
    },
    "openingHour": "09:00 AM",
    "closingHour": "06:00 PM"
  },
  {
    "id": 19,
    "name": "Schongau Flowers",
    "type": "Florist",
    "address": {
      "street": "Mülihalde 8",
      "postalCode": "6288",
      "city": "Schongau",
      "state": "Lucerne",
      "country": "Switzerland",
      "coordinates": [47.2664744, 8.266108702286989]
    },
    "openingHour": "08:30 AM",
    "closingHour": "05:30 PM"
  },
  {
    "id": 20,
    "name": "Gadmen Toys",
    "type": "Toy Store",
    "address": {
      "street": "Mettlenberg 247",
      "postalCode": "3863",
      "city": "Innertkirchen",
      "state": "Bern",
      "country": "Switzerland",
      "coordinates": [46.747816, 8.374036]
    },
    "openingHour": "08:00 AM",
    "closingHour": "04:00 PM"
  },
  {
    "id": 21,
    "name": "Le Noirmont Bakery",
    "type": "Bakery",
    "address": {
      "street": "Sur Le Gez 3044",
      "postalCode": "2340",
      "city": "Le Noirmont",
      "state": "Jura",
      "country": "Switzerland",
      "coordinates": [47.200138, 6.926015]
    },
    "openingHour": "09:00",
    "closingHour": "17:00"
  },
  {
    "id": 22,
    "name": "Cumpadials Grocery",
    "type": "Grocery",
    "address": {
      "street": "Via Bostg 12",
      "postalCode": "7176",
      "city": "Cumpadials",
      "state": "Graubunden",
      "country": "Switzerland",
      "coordinates": [46.704392, 8.91737]
    },
    "openingHour": "08:00",
    "closingHour": "18:00"
  },
  {
    "id": 23,
    "name": "Belpberg Cafe",
    "type": "Cafe",
    "address": {
      "street": "Hofstetten 44f",
      "postalCode": "3124",
      "city": "Belp",
      "state": "Bern",
      "country": "Switzerland",
      "coordinates": [46.854827, 7.522176]
    },
    "openingHour": "10:00",
    "closingHour": "16:00"
  },
  {
    "id": 24,
    "name": "Icogne Market",
    "type": "Market",
    "address": {
      "street": "Chemin Er De Lens 35",
      "postalCode": "1977",
      "city": "Icogne",
      "state": "Valais",
      "country": "Switzerland",
      "coordinates": [46.347507, 7.470826]
    },
    "openingHour": "09:00",
    "closingHour": "17:00"
  },
  {
    "id": 25,
    "name": "Unterseen Pharmacy",
    "type": "Pharmacy",
    "address": {
      "street": "Stollen 20",
      "postalCode": "3800",
      "city": "Unterseen",
      "state": "Bern",
      "country": "Switzerland",
      "coordinates": [46.71173, 7.841418]
    },
    "openingHour": "08:00",
    "closingHour": "18:00"
  },
  {
    "id": 26,
    "name": "Zeihen Hardware",
    "type": "Hardware Store",
    "address": {
      "street": "Bahnhofstrasse 37",
      "postalCode": "5079",
      "city": "Zeihen",
      "state": "Aargau",
      "country": "Switzerland",
      "coordinates": [47.480034, 8.091674]
    },
    "openingHour": "09:00",
    "closingHour": "17:00"
  },
  {
    "id": 27,
    "name": "Ried-Brig Florist",
    "type": "Florist",
    "address": {
      "street": "Neue Dorfstrasse 3",
      "postalCode": "3911",
      "city": "Ried-Brig",
      "state": "Valais",
      "country": "Switzerland",
      "coordinates": [46.31368, 8.014141]
    },
    "openingHour": "08:00",
    "closingHour": "18:00"
  },
  {
    "id": 28,
    "name": "Sachseln Bookstore",
    "type": "Bookstore",
    "address": {
      "street": "Stepfen 1.1",
      "postalCode": "6072",
      "city": "Sachseln",
      "state": "Obwalden",
      "country": "Switzerland",
      "coordinates": [46.803325, 8.267454]
    },
    "openingHour": "10:00",
    "closingHour": "16:00"
  },
  {
    "id": 29,
    "name": "Furna Art Gallery",
    "type": "Art Gallery",
    "address": {
      "street": "Quaggisweg 11.1",
      "postalCode": "7232",
      "city": "Furna",
      "state": "Graubunden",
      "country": "Switzerland",
      "coordinates": [46.901832, 9.682417]
    },
    "openingHour": "09:00",
    "closingHour": "17:00"
  },
  {
    "id": 30,
    "name": "Fleurier Boutique",
    "type": "Boutique",
    "address": {
      "street": "La Mordettaz 1.5",
      "postalCode": "2114",
      "city": "Val-de-Travers",
      "state": "Neuchatel",
      "country": "Switzerland",
      "coordinates": [46.884302, 6.578773]
    },
    "openingHour": "10:00",
    "closingHour": "16:00"
  },
  {
    "id": 31,
    "name": "Golden Bistro",
    "type": "Restaurant",
    "address": {
      "street": "Route De Prélet 15",
      "postalCode": "1985",
      "city": "Villa",
      "state": "Valais",
      "country": "Switzerland",
      "coordinates": [46.109247, 7.521437]
    },
    "openingHour": "08:00",
    "closingHour": "17:00"
  },
  {
    "id": 32,
    "name": "Zurzach Spa",
    "type": "Wellness",
    "address": {
      "street": "Quellenstrasse 80.1",
      "postalCode": "5330",
      "city": "Bad Zurzach",
      "state": "Aargau",
      "country": "Switzerland",
      "coordinates": [47.593259, 8.282051]
    },
    "openingHour": "09:00",
    "closingHour": "18:00"
  },
  {
    "id": 33,
    "name": "Mountain Inn",
    "type": "Hotel",
    "address": {
      "street": "Inner Urden 76",
      "postalCode": "7064",
      "city": "Tschiertschen",
      "state": "Graubunden",
      "country": "Switzerland",
      "coordinates": [46.780076, 9.613506]
    },
    "openingHour": "10:00",
    "closingHour": "18:00"
  },
  {
    "id": 34,
    "name": "Steg Sports",
    "type": "Sports Equipment",
    "address": {
      "street": "Trockener Steg 20",
      "postalCode": "3920",
      "city": "Zermatt",
      "state": "Valais",
      "country": "Switzerland",
      "coordinates": [45.970263, 7.72175]
    },
    "openingHour": "08:00",
    "closingHour": "16:00"
  },
  {
    "id": 35,
    "name": "Kastensattel Cafe",
    "type": "Cafe",
    "address": {
      "street": "Bützel-Kastensattel 1.1",
      "postalCode": "9464",
      "city": "Lienz",
      "state": "Saint Gallen",
      "country": "Switzerland",
      "coordinates": [47.284439, 9.49609]
    },
    "openingHour": "09:00",
    "closingHour": "17:00"
  },
  {
    "id": 36,
    "name": "Avoin Bakery",
    "type": "Bakery",
    "address": {
      "street": "Route d'Avoin 72",
      "postalCode": "3961",
      "city": "Grimentz",
      "state": "Valais",
      "country": "Switzerland",
      "coordinates": [46.174211, 7.545899]
    },
    "openingHour": "08:00",
    "closingHour": "15:00"
  },
  {
    "id": 37,
    "name": "Rochette Groceries",
    "type": "Grocery Store",
    "address": {
      "street": "Sous La Rochette 10b",
      "postalCode": "2947",
      "city": "Charmoille",
      "state": "Jura",
      "country": "Switzerland",
      "coordinates": [47.423139, 7.224859]
    },
    "openingHour": "08:00",
    "closingHour": "18:00"
  },
  {
    "id": 38,
    "name": "Ramboden Hardware",
    "type": "Hardware Store",
    "address": {
      "street": "Le Grand Ramboden 102h",
      "postalCode": "2829",
      "city": "Vermes",
      "state": "Jura",
      "country": "Switzerland",
      "coordinates": [47.306903, 7.487798]
    },
    "openingHour": "09:00",
    "closingHour": "17:00"
  },
  {
    "id": 39,
    "name": "Selden Flowers",
    "type": "Florist",
    "address": {
      "street": "Selden 2a",
      "postalCode": "3718",
      "city": "Kandersteg",
      "state": "Bern",
      "country": "Switzerland",
      "coordinates": [46.452272, 7.710165]
    },
    "openingHour": "08:00",
    "closingHour": "16:00"
  },
  {
    "id": 40,
    "name": "Rothaus Liquor",
    "type": "Liquor Store",
    "address": {
      "street": "Rothausweg 7",
      "postalCode": "8280",
      "city": "Kreuzlingen",
      "state": "Thurgau",
      "country": "Switzerland",
      "coordinates": [47.6397445, 9.183435911186974]
    },
    "openingHour": "10:00",
    "closingHour": "18:00"
  },
  {
    "id": 41,
    "name": "Optical Oasis",
    "type": "Optician",
    "address": {
      "street": "Biffig 4.1",
      "postalCode": "6247",
      "city": "Schötz",
      "state": "Lucerne",
      "country": "Switzerland",
      "coordinates": [47.172266, 7.997273]
    },
    "openingHour": "8:00 AM",
    "closingHour": "6:00 PM"
  },
  {
    "id": 42,
    "name": "Herbal Haven",
    "type": "Herbalist",
    "address": {
      "street": "Alpe Ruscada 3",
      "postalCode": "6658",
      "city": "Comologno",
      "state": "Ticino",
      "country": "Switzerland",
      "coordinates": [46.179606, 8.580075]
    },
    "openingHour": "9:00 AM",
    "closingHour": "4:00 PM"
  },
  {
    "id": 43,
    "name": "Mountain Motors",
    "type": "Auto Shop",
    "address": {
      "street": "Oberaletsch 25",
      "postalCode": "3914",
      "city": "Belalp",
      "state": "Valais",
      "country": "Switzerland",
      "coordinates": [46.39103, 7.997765]
    },
    "openingHour": "10:00 AM",
    "closingHour": "5:00 PM"
  },
  {
    "id": 44,
    "name": "Hearty Hut",
    "type": "Restaurant",
    "address": {
      "street": "Route d'Epeisses 89",
      "postalCode": "1237",
      "city": "Avully",
      "state": "Geneva",
      "country": "Switzerland",
      "coordinates": [46.169578, 5.983505]
    },
    "openingHour": "8:30 AM",
    "closingHour": "5:30 PM"
  },
  {
    "id": 45,
    "name": "Wilderness Wonders",
    "type": "Outdoor Equipment",
    "address": {
      "street": "Chemin de Reuvroz 9",
      "postalCode": "1884",
      "city": "Villars-sur-Ollon",
      "state": "Vaud",
      "country": "Switzerland",
      "coordinates": [46.2946783, 7.05486125]
    },
    "openingHour": "9:30 AM",
    "closingHour": "5:00 PM"
  },
  {
    "id": 46,
    "name": "Oasis Cafe",
    "type": "Cafe",
    "address": {
      "street": "Schlösslibüchel 1354.1",
      "postalCode": "8718",
      "city": "Schänis",
      "state": "Saint Gallen",
      "country": "Switzerland",
      "coordinates": [47.14846, 9.080265]
    },
    "openingHour": "8:00 AM",
    "closingHour": "6:00 PM"
  },
  {
    "id": 47,
    "name": "Rush Retail",
    "type": "Retail Store",
    "address": {
      "street": "La Chaille 1",
      "postalCode": "2023",
      "city": "Gorgier",
      "state": "Neuchatel",
      "country": "Switzerland",
      "coordinates": [46.932008, 6.753641]
    },
    "openingHour": "8:00 AM",
    "closingHour": "6:00 PM"
  },
  {
    "id": 48,
    "name": "Majestic Motors",
    "type": "Auto Shop",
    "address": {
      "street": "Hinterdorfstrasse 6",
      "postalCode": "3999",
      "city": "Obergoms",
      "state": "Wallis",
      "country": "Switzerland",
      "coordinates": [46.5331734, 8.3527648]
    },
    "openingHour": "8:00 AM",
    "closingHour": "5:00 PM"
  },
  {
    "id": 49,
    "name": "Wise Wonders",
    "type": "Bookstore",
    "address": {
      "street": "Ettriastrasse 7",
      "postalCode": "3989",
      "city": "Niederwald",
      "state": "Valais",
      "country": "Switzerland",
      "coordinates": [46.43382, 8.201889]
    },
    "openingHour": "9:00 AM",
    "closingHour": "5:00 PM"
  },
  {
    "id": 50,
    "name": "Water World Wonders",
    "type": "Waterpark",
    "address": {
      "street": "Tramstrasse 33",
      "postalCode": "9444",
      "city": "Diepoldsau",
      "state": "Saint Gallen",
      "country": "Switzerland",
      "coordinates": [47.389474, 9.649031]
    },
    "openingHour": "10:00 AM",
    "closingHour": "6:00 PM"
  },
  {
    "id": 51,
    "name": "Beinwil Shop",
    "type": "Retail",
    "address": {
      "street": "Seestrasse 502.3",
      "postalCode": "5712",
      "city": "Beinwil am See",
      "state": "Aargau",
      "country": "Switzerland",
      "coordinates": [47.263834, 8.21344]
    },
    "openingHour": "08:00 AM",
    "closingHour": "06:00 PM"
  },
  {
    "id": 52,
    "name": "Paradies Mart",
    "type": "Grocery",
    "address": {
      "street": "Paradies 181",
      "postalCode": "7551",
      "city": "Ftan",
      "state": "Graubunden",
      "country": "Switzerland",
      "coordinates": [46.785619, 10.234763]
    },
    "openingHour": "09:00 AM",
    "closingHour": "05:00 PM"
  },
  {
    "id": 53,
    "name": "Guber Electronics",
    "type": "Electronics",
    "address": {
      "street": "Guber 9",
      "postalCode": "6055",
      "city": "Alpnach",
      "state": "Obwalden",
      "country": "Switzerland",
      "coordinates": [46.925684, 8.233497]
    },
    "openingHour": "08:30 AM",
    "closingHour": "04:30 PM"
  },
  {
    "id": 54,
    "name": "Lignieres Bakery",
    "type": "Bakery",
    "address": {
      "street": "Chemin De Vorgneux 8",
      "postalCode": "2523",
      "city": "Lignières",
      "state": "Neuchatel",
      "country": "Switzerland",
      "coordinates": [47.091766, 7.050426]
    },
    "openingHour": "08:00 AM",
    "closingHour": "06:00 PM"
  },
  {
    "id": 55,
    "name": "Mervelier Cafe",
    "type": "Cafe",
    "address": {
      "street": "Chemin Du Transformateur 1g",
      "postalCode": "2827",
      "city": "Mervelier",
      "state": "Jura",
      "country": "Switzerland",
      "coordinates": [47.342882, 7.491901]
    },
    "openingHour": "10:00 AM",
    "closingHour": "05:00 PM"
  },
  {
    "id": 56,
    "name": "Eichmatt Pharmacy",
    "type": "Pharmacy",
    "address": {
      "street": "Eichmatt 2.3",
      "postalCode": "6289",
      "city": "Hämikon",
      "state": "Lucerne",
      "country": "Switzerland",
      "coordinates": [47.248652, 8.264782]
    },
    "openingHour": "08:00 AM",
    "closingHour": "06:00 PM"
  },
  {
    "id": 57,
    "name": "Hinwil Salon",
    "type": "Salon",
    "address": {
      "street": "Girenbadstrasse 25.1",
      "postalCode": "8340",
      "city": "Hinwil",
      "state": "Zurich",
      "country": "Switzerland",
      "coordinates": [47.312119, 8.859388]
    },
    "openingHour": "09:00 AM",
    "closingHour": "06:00 PM"
  },
  {
    "id": 58,
    "name": "Evolene Boutique",
    "type": "Fashion",
    "address": {
      "street": "Route De Sion 143",
      "postalCode": "1983",
      "city": "Evolène",
      "state": "Valais",
      "country": "Switzerland",
      "coordinates": [46.141723, 7.465656]
    },
    "openingHour": "10:00 AM",
    "closingHour": "06:00 PM"
  },
  {
    "id": 59,
    "name": "Fusio Crafts",
    "type": "Crafts",
    "address": {
      "street": "Val Sambuco 972b.99",
      "postalCode": "6696",
      "city": "Fusio",
      "state": "Ticino",
      "country": "Switzerland",
      "coordinates": [46.479367, 8.611865]
    },
    "openingHour": "09:30 AM",
    "closingHour": "05:30 PM"
  },
  {
    "id": 60,
    "name": "Unterschachen Hardware",
    "type": "Hardware",
    "address": {
      "street": "Unter Äbnet 1.2",
      "postalCode": "6465",
      "city": "Unterschächen",
      "state": "Uri",
      "country": "Switzerland",
      "coordinates": [46.869732, 8.764563]
    },
    "openingHour": "08:00 AM",
    "closingHour": "06:00 PM"
  },
  {
    "id": 61,
    "name": "En-bas-les-Barres Store",
    "type": "/",
    "address": {
      "street": "En-bas-les-Barres 1a.1",
      "postalCode": "2316",
      "city": "Les Ponts-de-Martel",
      "state": "Neuchatel",
      "country": "Switzerland",
      "coordinates": [46.997278, 6.745305]
    },
    "openingHour": "08:00 AM",
    "closingHour": "06:00 PM"
  },
  {
    "id": 62,
    "name": "Chemin En Verchère Shop",
    "type": "e",
    "address": {
      "street": "Chemin En Verchère 2.2",
      "postalCode": "1417",
      "city": "Essertines-sur-Yverdon",
      "state": "Vaud",
      "country": "Switzerland",
      "coordinates": [46.713317, 6.642147]
    },
    "openingHour": "09:00 AM",
    "closingHour": "05:00 PM"
  },
  {
    "id": 63,
    "name": "Mätteli Retail",
    "type": "n",
    "address": {
      "street": "Mätteli 2.7",
      "postalCode": "6493",
      "city": "Hospental",
      "state": "Uri",
      "country": "Switzerland",
      "coordinates": [46.595035, 8.563852]
    },
    "openingHour": "10:00 AM",
    "closingHour": "04:00 PM"
  },
  {
    "id": 64,
    "name": "Chemin Des Foulis Market",
    "type": "h",
    "address": {
      "street": "Chemin Des Foulis 24",
      "postalCode": "1222",
      "city": "Collonge-Bellerive",
      "state": "Geneva",
      "country": "Switzerland",
      "coordinates": [46.253791, 6.22726]
    },
    "openingHour": "08:30 AM",
    "closingHour": "05:30 PM"
  },
  {
    "id": 65,
    "name": "Kapellstrasse Boutique",
    "type": "e",
    "address": {
      "street": "Kapellstrasse 34.2",
      "postalCode": "8847",
      "city": "Egg",
      "state": "Schwyz",
      "country": "Switzerland",
      "coordinates": [47.158179, 8.778718]
    },
    "openingHour": "09:00 AM",
    "closingHour": "06:00 PM"
  },
  {
    "id": 66,
    "name": "Flüelistrasse Supplies",
    "type": "/",
    "address": {
      "street": "Flüelistrasse 19.2",
      "postalCode": "8226",
      "city": "Schleitheim",
      "state": "Schaffhausen",
      "country": "Switzerland",
      "coordinates": [47.750282, 8.460803]
    },
    "openingHour": "10:00 AM",
    "closingHour": "05:00 PM"
  },
  {
    "id": 67,
    "name": "Dr. Rudolf Probstweg Stores",
    "type": "e",
    "address": {
      "street": "Dr. Rudolf Probstweg 9",
      "postalCode": "4513",
      "city": "Langendorf",
      "state": "Solothurn",
      "country": "Switzerland",
      "coordinates": [47.2236772, 7.5105325838235215]
    },
    "openingHour": "08:30 AM",
    "closingHour": "04:30 PM"
  },
  {
    "id": 68,
    "name": "Seeboden Mart",
    "type": "e",
    "address": {
      "street": "Seeboden 2",
      "postalCode": "8915",
      "city": "Hausen am Albis",
      "state": "Zurich",
      "country": "Switzerland",
      "coordinates": [47.260575, 8.508116]
    },
    "openingHour": "09:00 AM",
    "closingHour": "06:00 PM"
  },
  {
    "id": 69,
    "name": "Au Shop",
    "type": "e",
    "address": {
      "street": "Au 1322",
      "postalCode": "9473",
      "city": "Gams",
      "state": "Saint Gallen",
      "country": "Switzerland",
      "coordinates": [47.196331, 9.404093]
    },
    "openingHour": "08:00 AM",
    "closingHour": "06:00 PM"
  },
  {
    "id": 70,
    "name": "Steinenbühl Goods",
    "type": "/",
    "address": {
      "street": "Steinenbühl 215",
      "postalCode": "4417",
      "city": "Ziefen",
      "state": "Basel-Country",
      "country": "Switzerland",
      "coordinates": [47.435535, 7.713993]
    },
    "openingHour": "10:00 AM",
    "closingHour": "04:30 PM"
  },
  {
    "id": 71,
    "name": "Wydenstrasse Cafe",
    "type": "Cafe",
    "address": {
      "street": "Wydenstrasse 36.6",
      "postalCode": "5242",
      "city": "Birr",
      "state": "Aargau",
      "country": "Switzerland",
      "coordinates": [47.440026, 8.215467]
    },
    "openingHour": "08:00",
    "closingHour": "18:00"
  },
  {
    "id": 72,
    "name": "Surettaweg Books",
    "type": "Bookstore",
    "address": {
      "street": "Surettaweg 5",
      "postalCode": "7434",
      "city": "Sufers",
      "state": "Graubunden",
      "country": "Switzerland",
      "coordinates": [46.558496, 9.394588]
    },
    "openingHour": "09:00",
    "closingHour": "17:00"
  },
  {
    "id": 73,
    "name": "Glärnischstrasse Flowers",
    "type": "Florist",
    "address": {
      "street": "Glärnischstrasse 26",
      "postalCode": "8820",
      "city": "Wädenswil",
      "state": "Zurich",
      "country": "Switzerland",
      "coordinates": [47.231025, 8.667378]
    },
    "openingHour": "08:30",
    "closingHour": "16:30"
  },
  {
    "id": 74,
    "name": "Brünigstrasse Bakery",
    "type": "Bakery",
    "address": {
      "street": "Brünigstrasse 280",
      "postalCode": "6072",
      "city": "Ewil",
      "state": "Obwalden",
      "country": "Switzerland",
      "coordinates": [46.8537451, 8.213348]
    },
    "openingHour": "08:00",
    "closingHour": "15:00"
  },
  {
    "id": 75,
    "name": "Blüemelenstrasse Pharmacy",
    "type": "Pharmacy",
    "address": {
      "street": "Blüemelenstrasse 1",
      "postalCode": "8585",
      "city": "Klarsreuti",
      "state": "Thurgau",
      "country": "Switzerland",
      "coordinates": [47.588997, 9.223636]
    },
    "openingHour": "09:00",
    "closingHour": "18:00"
  },
  {
    "id": 76,
    "name": "Via Giachentrina Market",
    "type": "Market",
    "address": {
      "street": "Via Giachentrina 21",
      "postalCode": "7173",
      "city": "Surrein",
      "state": "Graubunden",
      "country": "Switzerland",
      "coordinates": [46.720269, 8.943172]
    },
    "openingHour": "10:00",
    "closingHour": "17:00"
  },
  {
    "id": 77,
    "name": "Les Tservettes Jewelry",
    "type": "Jewelry Shop",
    "address": {
      "street": "Les Tservettes 139",
      "postalCode": "1666",
      "city": "Grandvillard",
      "state": "Fribourg",
      "country": "Switzerland",
      "coordinates": [46.540936, 7.121793]
    },
    "openingHour": "09:30",
    "closingHour": "17:30"
  },
  {
    "id": 78,
    "name": "Via Camplan Toys",
    "type": "Toy Store",
    "address": {
      "street": "Via Camplan 5",
      "postalCode": "7606",
      "city": "Promontogno",
      "state": "Graubunden",
      "country": "Switzerland",
      "coordinates": [46.341494, 9.570351]
    },
    "openingHour": "08:00",
    "closingHour": "16:00"
  },
  {
    "id": 79,
    "name": "Via Crap Masegn Electronics",
    "type": "Electronics",
    "address": {
      "street": "Via Crap Masegn 4",
      "postalCode": "7032",
      "city": "Ladir",
      "state": "Graubunden",
      "country": "Switzerland",
      "coordinates": [46.842101, 9.180098]
    },
    "openingHour": "09:00",
    "closingHour": "15:00"
  },
  {
    "id": 80,
    "name": "Gässli Restaurant",
    "type": "Restaurant",
    "address": {
      "street": "Gässli 12b",
      "postalCode": "3534",
      "city": "Schüpbach",
      "state": "Bern",
      "country": "Switzerland",
      "coordinates": [46.919704, 7.727271]
    },
    "openingHour": "10:00",
    "closingHour": "18:00"
  },
  {
    "id": 81,
    "name": "Wittenfärren Cafe",
    "type": "Cafe",
    "address": {
      "street": "Wittenfärren 1.4",
      "postalCode": "6196",
      "city": "Marbach",
      "state": "Lucerne",
      "country": "Switzerland",
      "coordinates": [46.834102, 7.917458]
    },
    "openingHour": "08:00 AM",
    "closingHour": "06:00 PM"
  },
  {
    "id": 82,
    "name": "Kalten Food Market",
    "type": "Food Market",
    "address": {
      "street": "Kaltenbrunnenweg 53a",
      "postalCode": "3775",
      "city": "Lenk",
      "state": "Bern",
      "country": "Switzerland",
      "coordinates": [46.4619908, 7.475237746387419]
    },
    "openingHour": "09:00 AM",
    "closingHour": "05:00 PM"
  },
  {
    "id": 83,
    "name": "Hub Technology Store",
    "type": "Technology",
    "address": {
      "street": "Hub 100.1",
      "postalCode": "9463",
      "city": "Oberriet",
      "state": "Saint Gallen",
      "country": "Switzerland",
      "coordinates": [47.338078, 9.530007]
    },
    "openingHour": "08:30 AM",
    "closingHour": "05:30 PM"
  },
  {
    "id": 84,
    "name": "Läger Bookstore",
    "type": "Bookstore",
    "address": {
      "street": "Läger 543",
      "postalCode": "3824",
      "city": "Lauterbrunnen",
      "state": "Bern",
      "country": "Switzerland",
      "coordinates": [46.514042, 7.897419]
    },
    "openingHour": "09:00 AM",
    "closingHour": "06:00 PM"
  },
  {
    "id": 85,
    "name": "Schwarzenbach Boutique",
    "type": "Boutique",
    "address": {
      "street": "Schwarzenbach 4.22",
      "postalCode": "6436",
      "city": "Bisisthal",
      "state": "Schwyz",
      "country": "Switzerland",
      "coordinates": [46.938453, 8.850638]
    },
    "openingHour": "08:00 AM",
    "closingHour": "04:00 PM"
  },
  {
    "id": 86,
    "name": "Leissigbärgli Spa",
    "type": "Spa",
    "address": {
      "street": "Leissigbärgli 514",
      "postalCode": "3706",
      "city": "Leissigen",
      "state": "Bern",
      "country": "Switzerland",
      "coordinates": [46.63871, 7.798473]
    },
    "openingHour": "10:00 AM",
    "closingHour": "05:00 PM"
  },
  {
    "id": 87,
    "name": "Grimselstrasse Bakery",
    "type": "Bakery",
    "address": {
      "street": "Grimselstrasse 7",
      "postalCode": "3999",
      "city": "Oberwald",
      "state": "Valais",
      "country": "Switzerland",
      "coordinates": [46.558693, 8.341751]
    },
    "openingHour": "08:00 AM",
    "closingHour": "06:00 PM"
  },
  {
    "id": 88,
    "name": "Im Gspon Restaurant",
    "type": "Restaurant",
    "address": {
      "street": "Im Gspon 1",
      "postalCode": "8874",
      "city": "Glarus Nord",
      "state": "Glarus",
      "country": "Switzerland",
      "coordinates": [47.07197, 9.190499]
    },
    "openingHour": "08:00 AM",
    "closingHour": "06:00 PM"
  },
  {
    "id": 89,
    "name": "Via Malpensada Groceries",
    "type": "Groceries",
    "address": {
      "street": "Via Malpensada 63",
      "postalCode": "6742",
      "city": "Pollegio",
      "state": "Ticino",
      "country": "Switzerland",
      "coordinates": [46.365146, 8.959091]
    },
    "openingHour": "08:30 AM",
    "closingHour": "05:30 PM"
  },
  {
    "id": 90,
    "name": "Riedji Pharmacy",
    "type": "Pharmacy",
    "address": {
      "street": "Riedji 6",
      "postalCode": "3924",
      "city": "St. Niklaus",
      "state": "Valais",
      "country": "Switzerland",
      "coordinates": [46.173235, 7.7877]
    },
    "openingHour": "09:00 AM",
    "closingHour": "06:00 PM"
  },
  {
    "id": 91,
    "name": "Business One",
    "type": "o",
    "address": {
      "street": "Niedermattgraben 179",
      "postalCode": "3543",
      "city": "Schüpbach",
      "state": "Bern",
      "country": "Switzerland",
      "coordinates": [46.93716605, 7.713178156126011]
    },
    "openingHour": "08:00 AM",
    "closingHour": "05:00 PM"
  },
  {
    "id": 92,
    "name": "Business Two",
    "type": "n",
    "address": {
      "street": "Gattikonerstrasse 47",
      "postalCode": "8800",
      "city": "Thalwil",
      "state": "Zurich",
      "country": "Switzerland",
      "coordinates": [47.284424650000005, 8.555699699999998]
    },
    "openingHour": "09:00 AM",
    "closingHour": "06:00 PM"
  },
  {
    "id": 93,
    "name": "Business Three",
    "type": "m",
    "address": {
      "street": "C'assinascia 1",
      "postalCode": "6780",
      "city": "Airolo",
      "state": "Ticino",
      "country": "Switzerland",
      "coordinates": [46.552211, 8.632953]
    },
    "openingHour": "08:30 AM",
    "closingHour": "05:30 PM"
  },
  {
    "id": 94,
    "name": "Business Four",
    "type": "r",
    "address": {
      "street": "Balm 2",
      "postalCode": "6436",
      "city": "Stalden",
      "state": "Schwyz",
      "country": "Switzerland",
      "coordinates": [46.93783355, 8.824217325672551]
    },
    "openingHour": "10:00 AM",
    "closingHour": "04:00 PM"
  },
  {
    "id": 95,
    "name": "Business Five",
    "type": "e",
    "address": {
      "street": "Stockjistrasse 47",
      "postalCode": "3903",
      "city": "Naters",
      "state": "Valais",
      "country": "Switzerland",
      "coordinates": [46.325338, 7.978632]
    },
    "openingHour": "09:00 AM",
    "closingHour": "05:00 PM"
  },
  {
    "id": 96,
    "name": "Business Six",
    "type": "e",
    "address": {
      "street": "Mittlerrotbach 1.1",
      "postalCode": "6162",
      "city": "Finsterwald b. Entlebuch",
      "state": "Lucerne",
      "country": "Switzerland",
      "coordinates": [46.906349, 8.111198]
    },
    "openingHour": "08:00 AM",
    "closingHour": "04:30 PM"
  },
  {
    "id": 97,
    "name": "Business Seven",
    "type": "e",
    "address": {
      "street": "Chemin Du Chalet Vieux 1",
      "postalCode": "1865",
      "city": "Ormont-Dessus",
      "state": "Vaud",
      "country": "Switzerland",
      "coordinates": [46.369018, 7.207548]
    },
    "openingHour": "09:00 AM",
    "closingHour": "05:30 PM"
  },
  {
    "id": 98,
    "name": "Business Eight",
    "type": "r",
    "address": {
      "street": "Route de Javerne 14",
      "postalCode": "1880",
      "city": "Bex",
      "state": "Vaud",
      "country": "Switzerland",
      "coordinates": [46.2453946, 7.057312899999996]
    },
    "openingHour": "09:30 AM",
    "closingHour": "05:00 PM"
  },
  {
    "id": 99,
    "name": "Business Nine",
    "type": "o",
    "address": {
      "street": "Via Al Generoso 29",
      "postalCode": "6821",
      "city": "Val Mara",
      "state": "Ticino",
      "country": "Switzerland",
      "coordinates": [45.933052, 8.993921]
    },
    "openingHour": "08:00 AM",
    "closingHour": "05:00 PM"
  },
  {
    "id": 100,
    "name": "Business Ten",
    "type": "o",
    "address": {
      "street": "Kistler Alp 1.8",
      "postalCode": "8864",
      "city": "Reichenburg",
      "state": "Schwyz",
      "country": "Switzerland",
      "coordinates": [47.143973, 8.962339]
    },
    "openingHour": "08:30 AM",
    "closingHour": "05:30 PM"
  }
]
